1:"$Sreact.fragment"
2:I[4442,["355","static/chunks/355-8278605604c77999.js","177","static/chunks/app/layout-4933f3c58a3f554f.js"],""]
3:"$Sreact.suspense"
4:I[4374,["355","static/chunks/355-8278605604c77999.js","177","static/chunks/app/layout-4933f3c58a3f554f.js"],"default"]
5:I[3355,["355","static/chunks/355-8278605604c77999.js","177","static/chunks/app/layout-4933f3c58a3f554f.js"],""]
6:I[8438,[],""]
7:I[6124,[],""]
8:I[7319,["355","static/chunks/355-8278605604c77999.js","910","static/chunks/910-8966f89b0f61ce22.js","415","static/chunks/app/sydney/page-235c75f581281d56.js"],"default"]
b:I[5022,[],""]
:HL["/_next/static/media/4cf2300e9c8272f7-s.p.woff2","font",{"crossOrigin":"","type":"font/woff2"}]
:HL["/_next/static/media/93f479601ee12b01-s.p.woff2","font",{"crossOrigin":"","type":"font/woff2"}]
:HL["/_next/static/css/67a0ef10775cace2.css","style"]
0:{"P":null,"b":"52RtGk3NWQL8wryaWIghl","p":"","c":["","sydney"],"i":false,"f":[[["",{"children":["sydney",{"children":["__PAGE__",{}]}]},"$undefined","$undefined",true],["",["$","$1","c",{"children":[[["$","link","0",{"rel":"stylesheet","href":"/_next/static/css/67a0ef10775cace2.css","precedence":"next","crossOrigin":"$undefined","nonce":"$undefined"}]],["$","html",null,{"lang":"en","children":[["$","head",null,{"children":[["$","$L2",null,{"src":"https://www.googletagmanager.com/gtag/js?id=G-FPRZ4Z8498","strategy":"afterInteractive"}],["$","$L2",null,{"id":"ga-init","strategy":"afterInteractive","children":"\n                window.dataLayer = window.dataLayer || [];\n                function gtag(){dataLayer.push(arguments);}\n                gtag('js', new Date());\n                gtag('config', 'G-FPRZ4Z8498', { send_page_view: false });\n              "}]]}],["$","body",null,{"className":"__variable_188709 __variable_9a8899 antialiased flex min-h-screen flex-col","children":[["$","$3",null,{"children":["$","$L4",null,{}]}],["$","header",null,{"className":"bg-green-700 text-white","children":["$","div",null,{"className":"mx-auto max-w-5xl p-4","children":["$","$L5",null,{"href":"/","className":"text-lg font-semibold","children":"Parks Near Me"}]}]}],["$","div",null,{"className":"flex-1","children":["$","$L6",null,{"parallelRouterKey":"children","error":"$undefined","errorStyles":"$undefined","errorScripts":"$undefined","template":["$","$L7",null,{}],"templateStyles":"$undefined","templateScripts":"$undefined","notFound":[[["$","title",null,{"children":"404: This page could not be found."}],["$","div",null,{"style":{"fontFamily":"system-ui,\"Segoe UI\",Roboto,Helvetica,Arial,sans-serif,\"Apple Color Emoji\",\"Segoe UI Emoji\"","height":"100vh","textAlign":"center","display":"flex","flexDirection":"column","alignItems":"center","justifyContent":"center"},"children":["$","div",null,{"children":[["$","style",null,{"dangerouslySetInnerHTML":{"__html":"body{color:#000;background:#fff;margin:0}.next-error-h1{border-right:1px solid rgba(0,0,0,.3)}@media (prefers-color-scheme:dark){body{color:#fff;background:#000}.next-error-h1{border-right:1px solid rgba(255,255,255,.3)}}"}}],["$","h1",null,{"className":"next-error-h1","style":{"display":"inline-block","margin":"0 20px 0 0","padding":"0 23px 0 0","fontSize":24,"fontWeight":500,"verticalAlign":"top","lineHeight":"49px"},"children":404}],["$","div",null,{"style":{"display":"inline-block"},"children":["$","h2",null,{"style":{"fontSize":14,"fontWeight":400,"lineHeight":"49px","margin":0},"children":"This page could not be found."}]}]]}]}]],[]],"forbidden":"$undefined","unauthorized":"$undefined"}]}],["$","footer",null,{"className":"bg-gray-100 text-center text-sm text-gray-600 mt-8","children":["$","div",null,{"className":"mx-auto max-w-5xl p-4","children":["© ",2025," Parks Near Me"]}]}]]}]]}]]}],{"children":["sydney",["$","$1","c",{"children":[null,["$","$L6",null,{"parallelRouterKey":"children","error":"$undefined","errorStyles":"$undefined","errorScripts":"$undefined","template":["$","$L7",null,{}],"templateStyles":"$undefined","templateScripts":"$undefined","notFound":"$undefined","forbidden":"$undefined","unauthorized":"$undefined"}]]}],{"children":["__PAGE__",["$","$1","c",{"children":[["$","main",null,{"className":"mx-auto max-w-5xl p-4","children":[["$","h1",null,{"className":"text-2xl font-bold mb-2","children":"Discover Parks in Sydney"}],["$","h2",null,{"className":"text-xl font-semibold mt-6","children":"Explore Sydney's parks by suburb and features – from harbourfront lawns to neighbourhood playgrounds."}],["$","p",null,{"className":"mb-4","children":"Whether you're planning a family picnic, a dog walk or a weekend BBQ, our Sydney park directory helps you find the perfect green space across the city."}],["$","p",null,{"className":"mb-4","children":"Filter your search to discover parks with free BBQ facilities, shaded areas, playgrounds or off-leash areas, and uncover new outdoor spots in your local suburb."}],["$","$L8",null,{"parks":[{"slug":"alexandria-park","title":"Alexandria Park","short_description":"Shaded sports ovals and community greenspace near Alexandria town centre.","lat":-33.900048,"lng":151.197815,"state":"NSW","city":"Sydney","suburb":"Alexandria","features":{"bbq":false,"playground":false,"shade":true,"parking":false,"dog_off_leash":false,"picnic_tables":false,"free_entry":true}},{"slug":"ashfield-park","title":"Ashfield Park","short_description":"Expansive local park with gardens, memorials and open lawns.","lat":-33.885802,"lng":151.134446,"state":"NSW","city":"Sydney","suburb":"Ashfield","features":{"bbq":false,"playground":false,"shade":true,"parking":false,"dog_off_leash":false,"picnic_tables":false,"free_entry":true}},{"slug":"auburn-botanic-gardens","title":"Auburn Botanic Gardens","short_description":"Beautiful Japanese gardens, lakes and fauna reserve in Western Sydney.","lat":-33.8617,"lng":151.0315,"state":"NSW","city":"Sydney","suburb":"Auburn","features":{"bbq":true,"playground":true,"shade":true,"parking":true,"dog_off_leash":false,"picnic_tables":true,"free_entry":false}},{"slug":"australian-botanic-garden-mount-annan","title":"Australian Botanic Garden, Mount Annan","short_description":"Australia’s largest botanic garden, showcasing native flora across rolling hills.","lat":-34.0538,"lng":150.7674,"state":"NSW","city":"Sydney","suburb":"Mount Annan","features":{"bbq":true,"playground":false,"shade":true,"parking":true,"dog_off_leash":false,"picnic_tables":true,"free_entry":true}},{"slug":"ballast-point-park","title":"Ballast Point Park","short_description":"Industrial‑heritage headland transformed into a sculptural harbourfront park at Birchgrove.","lat":-33.85245,"lng":151.189106,"state":"NSW","city":"Sydney","suburb":"Birchgrove","features":{"bbq":false,"playground":false,"shade":true,"parking":false,"dog_off_leash":false,"picnic_tables":true,"free_entry":true}},{"slug":"balls-head-reserve","title":"Balls Head Reserve","short_description":"Harbour headland with lookouts, picnic sites and bush tracks.","lat":-33.845437,"lng":151.195654,"state":"NSW","city":"Sydney","suburb":"Waverton","features":{"bbq":false,"playground":false,"shade":true,"parking":false,"dog_off_leash":false,"picnic_tables":false,"free_entry":true}},{"slug":"barangaroo-reserve","title":"Barangaroo Reserve","short_description":"Terraced headland park with native plantings and sweeping harbour views at Millers Point.","lat":-33.858481,"lng":151.201324,"state":"NSW","city":"Sydney","suburb":"Millers Point","features":{"bbq":false,"playground":false,"shade":true,"parking":false,"dog_off_leash":false,"picnic_tables":false,"free_entry":true}},{"slug":"berry-island-reserve","title":"Berry Island Reserve","short_description":"Bushland reserve with loop walk and harbour views.","lat":-33.839289,"lng":151.188821,"state":"NSW","city":"Sydney","suburb":"Wollstonecraft","features":{"bbq":false,"playground":false,"shade":true,"parking":false,"dog_off_leash":false,"picnic_tables":false,"free_entry":true}},{"slug":"bicentennial-park-glebe","title":"Bicentennial Park (Glebe)","short_description":"Foreshore park in Glebe with views across Rozelle and Blackwattle Bays.","lat":-33.8699,"lng":151.18,"state":"NSW","city":"Sydney","suburb":"Glebe","features":{"bbq":false,"playground":false,"shade":false,"parking":false,"dog_off_leash":true,"picnic_tables":false,"free_entry":true}},{"slug":"bicentennial-park-sydney-olympic-park","title":"Bicentennial Park (Sydney Olympic Park)","short_description":"40‑hectare park at Sydney Olympic Park with lakes, playgrounds and shady picnic shelters.","lat":-33.8477,"lng":151.0765,"state":"NSW","city":"Sydney","suburb":"Sydney Olympic Park","features":{"bbq":true,"playground":true,"shade":false,"parking":true,"dog_off_leash":false,"picnic_tables":true,"free_entry":true}},{"slug":"blackwattle-bay-park","title":"Blackwattle Bay Park","short_description":"Foreshore walk and lawns along Blackwattle Bay with views to ANZAC Bridge and the city.","lat":-33.872512,"lng":151.18447,"state":"NSW","city":"Sydney","suburb":"Glebe","features":{"bbq":false,"playground":false,"shade":true,"parking":false,"dog_off_leash":false,"picnic_tables":true,"free_entry":true}},{"slug":"blaxland-riverside-park","title":"Blaxland Riverside Park","short_description":"Huge riverside destination with playgrounds, water play and picnic lawns.","lat":-33.8389,"lng":151.0789,"state":"NSW","city":"Sydney","suburb":"Sydney Olympic Park","features":{"bbq":false,"playground":false,"shade":true,"parking":false,"dog_off_leash":false,"picnic_tables":false,"free_entry":true}},{"slug":"blues-point-reserve","title":"Blues Point Reserve","short_description":"Small waterfront reserve at McMahons Point with postcard views of the Harbour Bridge.","lat":-33.848989,"lng":151.204346,"state":"NSW","city":"Sydney","suburb":"McMahons Point","features":{"bbq":false,"playground":false,"shade":true,"parking":false,"dog_off_leash":false,"picnic_tables":false,"free_entry":true}},{"slug":"bradfield-park","title":"Bradfield Park","short_description":"Iconic harbour‑side lawns under the Sydney Harbour Bridge with a children's playground.","lat":-33.847326,"lng":151.212213,"state":"NSW","city":"Sydney","suburb":"Milsons Point","features":{"bbq":false,"playground":true,"shade":true,"parking":false,"dog_off_leash":false,"picnic_tables":false,"free_entry":true}},{"slug":"brays-bay-reserve","title":"Brays Bay Reserve","short_description":"Small bayfront reserve with heritage pylons and views across the Parramatta River.","lat":-33.831251,"lng":151.089552,"state":"NSW","city":"Sydney","suburb":"Rhodes","features":{"bbq":false,"playground":false,"shade":true,"parking":false,"dog_off_leash":false,"picnic_tables":false,"free_entry":true}},{"slug":"brett-park","title":"Brett Park","short_description":"Foreshore green connecting Bay Run segments at Iron Cove.","lat":-33.857462,"lng":151.157592,"state":"NSW","city":"Sydney","suburb":"Drummoyne","features":{"bbq":false,"playground":false,"shade":true,"parking":false,"dog_off_leash":false,"picnic_tables":false,"free_entry":true}},{"slug":"bungarribee-park","title":"Bungarribee Park","short_description":"Expansive grasslands and wetlands with cycling and walking trails.","lat":-33.789,"lng":150.8545,"state":"NSW","city":"Sydney","suburb":"Bungarribee","features":{"bbq":false,"playground":false,"shade":true,"parking":false,"dog_off_leash":false,"picnic_tables":false,"free_entry":true}},{"slug":"cabarita-park","title":"Cabarita Park","short_description":"Peninsula park with beach, ferry wharf and shaded picnic lawns.","lat":-33.843085,"lng":151.118197,"state":"NSW","city":"Sydney","suburb":"Cabarita","features":{"bbq":false,"playground":false,"shade":true,"parking":false,"dog_off_leash":false,"picnic_tables":false,"free_entry":true}},{"slug":"cahill-park","title":"Cahill Park","short_description":"Open lawns and playground by the Cooks River near Wolli Creek station.","lat":-33.932336,"lng":151.156009,"state":"NSW","city":"Sydney","suburb":"Wolli Creek","features":{"bbq":false,"playground":false,"shade":true,"parking":false,"dog_off_leash":false,"picnic_tables":false,"free_entry":true}},{"slug":"callan-park","title":"Callan Park","short_description":"Vast heritage waterfront grounds of the former Rozelle Hospital with walking paths and lawns.","lat":-33.866772,"lng":151.160809,"state":"NSW","city":"Sydney","suburb":"Lilyfield","features":{"bbq":false,"playground":false,"shade":true,"parking":false,"dog_off_leash":false,"picnic_tables":false,"free_entry":true}},{"slug":"camperdown-memorial-rest-park","title":"Camperdown Memorial Rest Park","short_description":"Leafy neighbourhood park with lawns and paths beside historic St Stephen’s.","lat":-33.894512,"lng":151.178985,"state":"NSW","city":"Sydney","suburb":"Newtown","features":{"bbq":false,"playground":false,"shade":true,"parking":false,"dog_off_leash":false,"picnic_tables":false,"free_entry":true}},{"slug":"cathy-freeman-park","title":"Cathy Freeman Park","short_description":"Central green with avenue and artworks at Sydney Olympic Park.","lat":-33.846031,"lng":151.066174,"state":"NSW","city":"Sydney","suburb":"Sydney Olympic Park","features":{"bbq":false,"playground":false,"shade":true,"parking":false,"dog_off_leash":false,"picnic_tables":false,"free_entry":true}},{"slug":"centennial-park","title":"Centennial Park","short_description":"Grand Victorian parklands with ponds, cycle paths and wide picnic lawns.","lat":-33.897778,"lng":151.233889,"state":"NSW","city":"Sydney","suburb":"Centennial Park","features":{"bbq":true,"playground":true,"shade":false,"parking":true,"dog_off_leash":true,"picnic_tables":true,"free_entry":true}},{"slug":"chipping-norton-lakes-regional-park","title":"Chipping Norton Lakes Regional Park","short_description":"Georges River wetlands and foreshore parklands with shared paths.","lat":-33.9315,"lng":150.9636,"state":"NSW","city":"Sydney","suburb":"Chipping Norton","features":{"bbq":false,"playground":false,"shade":true,"parking":false,"dog_off_leash":false,"picnic_tables":false,"free_entry":true}},{"slug":"clifton-gardens-reserve","title":"Clifton Gardens Reserve","short_description":"Beachside reserve at Mosman with picnic lawns, playground and netted harbour baths.","lat":-33.83901,"lng":151.25265,"state":"NSW","city":"Sydney","suburb":"Mosman","features":{"bbq":true,"playground":true,"shade":true,"parking":true,"dog_off_leash":true,"picnic_tables":true,"free_entry":true}},{"slug":"como-pleasure-grounds","title":"Como Pleasure Grounds","short_description":"Riverside park with playground, BBQs and the Como tidal baths.","lat":-33.997599,"lng":151.069797,"state":"NSW","city":"Sydney","suburb":"Como","features":{"bbq":true,"playground":true,"shade":true,"parking":false,"dog_off_leash":false,"picnic_tables":true,"free_entry":true}},{"slug":"enmore-park","title":"Enmore Park","short_description":"Community park with big lawns opposite the Annette Kellerman Aquatic Centre.","lat":-33.904472,"lng":151.169307,"state":"NSW","city":"Sydney","suburb":"Marrickville","features":{"bbq":false,"playground":false,"shade":true,"parking":false,"dog_off_leash":false,"picnic_tables":false,"free_entry":true}},{"slug":"fairfield-adventure-park","title":"Fairfield Adventure Park","short_description":"Destination playground with obstacle course and climbing towers.","lat":-33.8716,"lng":150.9563,"state":"NSW","city":"Sydney","suburb":"Fairfield","features":{"bbq":false,"playground":true,"shade":true,"parking":true,"dog_off_leash":false,"picnic_tables":false,"free_entry":true}},{"slug":"federal-park-annandale","title":"Federal Park (Annandale)","short_description":"Green corridor along the Johnstons Creek with walking and cycling paths.","lat":-33.8733,"lng":151.1726,"state":"NSW","city":"Sydney","suburb":"Annandale","features":{"bbq":false,"playground":false,"shade":false,"parking":false,"dog_off_leash":true,"picnic_tables":false,"free_entry":true}},{"slug":"georges-river-national-park","title":"Georges River National Park","short_description":"Riverside picnic areas, BBQs and boat ramps along the Georges River.","lat":-33.9695,"lng":151.005,"state":"NSW","city":"Sydney","suburb":"Picnic Point / Revesby Heights","features":{"bbq":true,"playground":false,"shade":true,"parking":true,"dog_off_leash":false,"picnic_tables":true,"free_entry":false}},{"slug":"gough-whitlam-park","title":"Gough Whitlam Park","short_description":"Grassy mounds and paths at a riverside park in Earlwood.","lat":-33.9319,"lng":151.1319,"state":"NSW","city":"Sydney","suburb":"Earlwood","features":{"bbq":false,"playground":false,"shade":true,"parking":false,"dog_off_leash":false,"picnic_tables":false,"free_entry":true}},{"slug":"greenwich-point-reserve","title":"Greenwich Point Reserve","short_description":"Small headland reserve with foreshore path and city views.","lat":-33.838444,"lng":151.182133,"state":"NSW","city":"Sydney","suburb":"Greenwich","features":{"bbq":false,"playground":false,"shade":true,"parking":false,"dog_off_leash":false,"picnic_tables":false,"free_entry":true}},{"slug":"heffron-park","title":"Heffron Park","short_description":"One of Sydney’s largest community sports parks with cycleways.","lat":-33.950231,"lng":151.234815,"state":"NSW","city":"Sydney","suburb":"Maroubra","features":{"bbq":false,"playground":false,"shade":true,"parking":false,"dog_off_leash":false,"picnic_tables":false,"free_entry":true}},{"slug":"hyde-park-sydney","title":"Hyde Park","short_description":"Australia’s oldest public park with grand avenues, the Archibald Fountain and the ANZAC War Memorial.","lat":-33.873341,"lng":151.211243,"state":"NSW","city":"Sydney","suburb":"Sydney CBD","features":{"bbq":false,"playground":false,"shade":true,"parking":false,"dog_off_leash":false,"picnic_tables":false,"free_entry":true}},{"slug":"jubilee-park-glebe","title":"Jubilee Park (Glebe)","short_description":"Harbourside lawns beside the restored Glebe viaduct and light rail stop.","lat":-33.8715,"lng":151.1809,"state":"NSW","city":"Sydney","suburb":"Glebe","features":{"bbq":false,"playground":false,"shade":false,"parking":false,"dog_off_leash":true,"picnic_tables":false,"free_entry":true}},{"slug":"kamay-botany-bay-national-park","title":"Kamay Botany Bay National Park","short_description":"Coastal headlands, whale lookouts and heritage sites at Kurnell and La Perouse.","lat":-34.012908,"lng":151.23022,"state":"NSW","city":"Sydney","suburb":"Kurnell / La Perouse","features":{"bbq":false,"playground":false,"shade":true,"parking":true,"dog_off_leash":false,"picnic_tables":true,"free_entry":false}},{"slug":"kurraba-point-reserve","title":"Kurraba Point Reserve","short_description":"Harbourside lawns and fig trees on a quiet headland.","lat":-33.8414,"lng":151.2322,"state":"NSW","city":"Sydney","suburb":"Kurraba Point","features":{"bbq":false,"playground":false,"shade":true,"parking":false,"dog_off_leash":false,"picnic_tables":false,"free_entry":true}},{"slug":"lake-parramatta-reserve","title":"Lake Parramatta Reserve","short_description":"Bushland lake with patrolled swim area in summer and lakeside walks.","lat":-33.7886,"lng":151.0083,"state":"NSW","city":"Sydney","suburb":"North Parramatta","features":{"bbq":true,"playground":true,"shade":true,"parking":false,"dog_off_leash":false,"picnic_tables":true,"free_entry":true}},{"slug":"lane-cove-national-park","title":"Lane Cove National Park","short_description":"Bushland along the Lane Cove River with picnic areas, walking tracks and wildlife.","lat":-33.775151,"lng":151.122185,"state":"NSW","city":"Sydney","suburb":"Lindfield/Chatswood West","features":{"bbq":false,"playground":false,"shade":false,"parking":false,"dog_off_leash":false,"picnic_tables":true,"free_entry":false}},{"slug":"meadowbank-park","title":"Meadowbank Park","short_description":"Large parkland precinct with river-side paths and sports fields.","lat":-33.817057,"lng":151.083028,"state":"NSW","city":"Sydney","suburb":"Meadowbank","features":{"bbq":false,"playground":false,"shade":true,"parking":false,"dog_off_leash":false,"picnic_tables":false,"free_entry":true}},{"slug":"mirambeena-regional-park","title":"Mirambeena Regional Park","short_description":"Green corridors along the Georges River with wetlands and picnic nooks.","lat":-33.900355,"lng":150.97479,"state":"NSW","city":"Sydney","suburb":"Lansdowne / Georges Hall","features":{"bbq":false,"playground":false,"shade":true,"parking":false,"dog_off_leash":false,"picnic_tables":false,"free_entry":true}},{"slug":"moore-park","title":"Moore Park","short_description":"Expansive parklands with sports fields and avenues linking Centennial Parklands to the city.","lat":-33.895833,"lng":151.221944,"state":"NSW","city":"Sydney","suburb":"Moore Park","features":{"bbq":true,"playground":false,"shade":true,"parking":false,"dog_off_leash":false,"picnic_tables":false,"free_entry":true}},{"slug":"nielsen-park","title":"Nielsen Park","short_description":"Popular harbour beach and picnic area within Sydney Harbour National Park at Vaucluse.","lat":-33.851376,"lng":151.26718,"state":"NSW","city":"Sydney","suburb":"Vaucluse","features":{"bbq":false,"playground":false,"shade":true,"parking":true,"dog_off_leash":false,"picnic_tables":true,"free_entry":true}},{"slug":"nurragingy-reserve","title":"Nurragingy Reserve","short_description":"84‑hectare bushland reserve with lakes, gardens and family picnic spots.","lat":-33.7609,"lng":150.859327,"state":"NSW","city":"Sydney","suburb":"Doonside","features":{"bbq":true,"playground":true,"shade":true,"parking":true,"dog_off_leash":false,"picnic_tables":true,"free_entry":true}},{"slug":"oatley-park","title":"Oatley Park","short_description":"Expansive bushland reserve on the Georges River with playgrounds, castle picnic area, swimming baths and lookouts.","lat":-33.9825,"lng":151.0594,"state":"NSW","city":"Sydney","suburb":"Oatley","features":{"bbq":true,"playground":true,"shade":true,"parking":true,"dog_off_leash":false,"picnic_tables":true,"free_entry":true}},{"slug":"observatory-hill-park","title":"Observatory Hill Park","short_description":"Historic hilltop lawns around Sydney Observatory with panoramic harbour views.","lat":-33.859743,"lng":151.204961,"state":"NSW","city":"Sydney","suburb":"Millers Point","features":{"bbq":false,"playground":false,"shade":true,"parking":false,"dog_off_leash":false,"picnic_tables":false,"free_entry":true}},{"slug":"parramatta-park","title":"Parramatta Park","short_description":"World‑Heritage parkland with historic sites, playgrounds and spacious picnic lawns.","lat":-33.809206,"lng":150.996375,"state":"NSW","city":"Sydney","suburb":"Parramatta","features":{"bbq":true,"playground":true,"shade":false,"parking":true,"dog_off_leash":false,"picnic_tables":true,"free_entry":true}},{"slug":"petersham-park","title":"Petersham Park","short_description":"Victorian-era parkland with oval, rotunda and shaded paths.","lat":-33.891531,"lng":151.150617,"state":"NSW","city":"Sydney","suburb":"Petersham","features":{"bbq":false,"playground":false,"shade":true,"parking":false,"dog_off_leash":false,"picnic_tables":false,"free_entry":true}},{"slug":"pirrama-park","title":"Pirrama Park","short_description":"Harbourside lawns, playground and promenade on Pyrmont Point with skyline views.","lat":-33.864265,"lng":151.19245,"state":"NSW","city":"Sydney","suburb":"Pyrmont","features":{"bbq":true,"playground":true,"shade":true,"parking":false,"dog_off_leash":false,"picnic_tables":true,"free_entry":true}},{"slug":"plough-and-harrow-park","title":"Plough and Harrow Park","short_description":"Lakeside lawns and picnic spots in Western Sydney Parklands.","lat":-33.8509,"lng":150.8514,"state":"NSW","city":"Sydney","suburb":"Abbotsbury","features":{"bbq":false,"playground":false,"shade":true,"parking":false,"dog_off_leash":false,"picnic_tables":false,"free_entry":true}},{"slug":"prince-alfred-park","title":"Prince Alfred Park","short_description":"Central city park beside Central Station with lawns, pool and BBQ spots.","lat":-33.887722,"lng":151.204733,"state":"NSW","city":"Sydney","suburb":"Surry Hills","features":{"bbq":true,"playground":false,"shade":false,"parking":false,"dog_off_leash":true,"picnic_tables":true,"free_entry":true}},{"slug":"prospect-reservoir","title":"Prospect Reservoir","short_description":"Historic reservoir with lakeside lawns, playgrounds and picnic areas.","lat":-33.821337,"lng":150.892731,"state":"NSW","city":"Sydney","suburb":"Prospect","features":{"bbq":true,"playground":true,"shade":true,"parking":true,"dog_off_leash":false,"picnic_tables":true,"free_entry":true}},{"slug":"putney-park","title":"Putney Park","short_description":"Riverside lawns with a popular water play area and picnic spots.","lat":-33.83296,"lng":151.109155,"state":"NSW","city":"Sydney","suburb":"Putney","features":{"bbq":false,"playground":false,"shade":true,"parking":false,"dog_off_leash":false,"picnic_tables":false,"free_entry":true}},{"slug":"queens-park","title":"Queens Park","short_description":"Expansive sports fields and open lawns at the foot of Centennial Parklands.","lat":-33.899167,"lng":151.247222,"state":"NSW","city":"Sydney","suburb":"Queens Park","features":{"bbq":false,"playground":false,"shade":true,"parking":false,"dog_off_leash":false,"picnic_tables":false,"free_entry":true}},{"slug":"redfern-park","title":"Redfern Park","short_description":"Heritage inner-city park with fig trees, lawns and water features.","lat":-33.894574,"lng":151.206048,"state":"NSW","city":"Sydney","suburb":"Redfern","features":{"bbq":false,"playground":false,"shade":true,"parking":false,"dog_off_leash":false,"picnic_tables":false,"free_entry":true}},{"slug":"rhodes-foreshore-park","title":"Rhodes Foreshore Park","short_description":"Waterside promenade and lawns facing Homebush Bay.","lat":-33.83012,"lng":151.083507,"state":"NSW","city":"Sydney","suburb":"Rhodes","features":{"bbq":false,"playground":false,"shade":true,"parking":false,"dog_off_leash":false,"picnic_tables":false,"free_entry":true}},{"slug":"royal-botanic-garden-sydney","title":"Royal Botanic Garden Sydney","short_description":"Harbourside botanic garden with sweeping lawns, specialty plant collections and skyline views.","lat":-33.8642,"lng":151.2166,"state":"NSW","city":"Sydney","suburb":"Sydney CBD","features":{"bbq":false,"playground":false,"shade":true,"parking":true,"dog_off_leash":false,"picnic_tables":true,"free_entry":true}},{"slug":"rushcutters-bay-park","title":"Rushcutters Bay Park","short_description":"Harbourside lawns popular with joggers and dog owners, with sports fields and a kiosk.","lat":-33.875127,"lng":151.233033,"state":"NSW","city":"Sydney","suburb":"Rushcutters Bay","features":{"bbq":false,"playground":false,"shade":false,"parking":false,"dog_off_leash":true,"picnic_tables":false,"free_entry":true}},{"slug":"sir-joseph-banks-park","title":"Sir Joseph Banks Park","short_description":"Wetlands and dunes remnant with boardwalks and picnic lawns.","lat":-33.952507,"lng":151.196933,"state":"NSW","city":"Sydney","suburb":"Botany","features":{"bbq":false,"playground":false,"shade":true,"parking":false,"dog_off_leash":false,"picnic_tables":false,"free_entry":true}},{"slug":"steel-park","title":"Steel Park","short_description":"Community park with riverside path and shaded lawns.","lat":-33.920822,"lng":151.145112,"state":"NSW","city":"Sydney","suburb":"Marrickville","features":{"bbq":false,"playground":false,"shade":true,"parking":false,"dog_off_leash":false,"picnic_tables":false,"free_entry":true}},{"slug":"sydney-park","title":"Sydney Park","short_description":"Former brickworks turned wetlands and rolling lawns with landmark chimneys.","lat":-33.908834,"lng":151.18845,"state":"NSW","city":"Sydney","suburb":"St Peters/Alexandria","features":{"bbq":true,"playground":true,"shade":false,"parking":true,"dog_off_leash":true,"picnic_tables":true,"free_entry":true}},{"slug":"tempe-reserve","title":"Tempe Reserve","short_description":"Riverfront park with sports fields and dog areas beside the Cooks River.","lat":-33.929837,"lng":151.160197,"state":"NSW","city":"Sydney","suburb":"Tempe","features":{"bbq":false,"playground":false,"shade":true,"parking":false,"dog_off_leash":false,"picnic_tables":false,"free_entry":true}},{"slug":"the-domain","title":"The Domain","short_description":"Open lawns and fig-lined avenues next to the Royal Botanic Garden.","lat":-33.867998,"lng":151.217011,"state":"NSW","city":"Sydney","suburb":"Sydney CBD","features":{"bbq":false,"playground":false,"shade":true,"parking":false,"dog_off_leash":false,"picnic_tables":false,"free_entry":true}},{"slug":"tumbalong-park","title":"Tumbalong Park","short_description":"Events lawn and waterfront open space at Darling Harbour, near the Darling Quarter playground.","lat":-33.875692,"lng":151.20172,"state":"NSW","city":"Sydney","suburb":"Darling Harbour","features":{"bbq":false,"playground":false,"shade":false,"parking":false,"dog_off_leash":false,"picnic_tables":false,"free_entry":true}},{"slug":"victoria-park","title":"Victoria Park","short_description":"Inner‑city park beside the University of Sydney with lake, lawns and a popular playground.","lat":-33.886606,"lng":151.192743,"state":"NSW","city":"Sydney","suburb":"Camperdown","features":{"bbq":false,"playground":true,"shade":true,"parking":false,"dog_off_leash":false,"picnic_tables":false,"free_entry":true}},{"slug":"waterloo-oval","title":"Waterloo Oval","short_description":"Neighbourhood oval with playgrounds and tree-lined edges.","lat":-33.901281,"lng":151.20523,"state":"NSW","city":"Sydney","suburb":"Waterloo","features":{"bbq":false,"playground":false,"shade":true,"parking":false,"dog_off_leash":false,"picnic_tables":false,"free_entry":true}},{"slug":"wattamolla-royal-national-park","title":"Wattamolla (Royal National Park)","short_description":"Iconic beach, lagoon and picnic area within Royal National Park.","lat":-34.1386,"lng":151.1149,"state":"NSW","city":"Sydney","suburb":"Royal National Park","features":{"bbq":true,"playground":false,"shade":true,"parking":true,"dog_off_leash":false,"picnic_tables":true,"free_entry":false}},{"slug":"wendy-whiteleys-secret-garden","title":"Wendy Whiteley’s Secret Garden","short_description":"Beloved community garden and terraced lawns by Lavender Bay.","lat":-33.8456,"lng":151.2066,"state":"NSW","city":"Sydney","suburb":"Lavender Bay","features":{"bbq":false,"playground":false,"shade":true,"parking":false,"dog_off_leash":false,"picnic_tables":true,"free_entry":true}},{"slug":"wentworth-common","title":"Wentworth Common","short_description":"Wetlands, boardwalks and picnic lawns within Sydney Olympic Park.","lat":-33.837139,"lng":151.074615,"state":"NSW","city":"Sydney","suburb":"Sydney Olympic Park","features":{"bbq":false,"playground":false,"shade":true,"parking":false,"dog_off_leash":false,"picnic_tables":false,"free_entry":true}},{"slug":"wentworth-park","title":"Wentworth Park","short_description":"Large sports and events park between Glebe and Ultimo with dog-friendly paths.","lat":-33.8773,"lng":151.1925,"state":"NSW","city":"Sydney","suburb":"Glebe","features":{"bbq":false,"playground":false,"shade":true,"parking":false,"dog_off_leash":false,"picnic_tables":false,"free_entry":true}},{"slug":"wylde-mtb-bmx-park","title":"Wylde MTB & BMX Park","short_description":"86‑hectare mountain bike and BMX hub with trails, pump track and race track.","lat":-33.8749,"lng":150.8102,"state":"NSW","city":"Sydney","suburb":"Cecil Park","features":{"bbq":false,"playground":false,"shade":true,"parking":true,"dog_off_leash":false,"picnic_tables":false,"free_entry":true}}],"defaultState":"NSW","defaultQuery":"Sydney"}]]}],null,"$L9"]}],{},null,false]},null,false]},null,false],"$La",false]],"m":"$undefined","G":["$b",[]],"s":false,"S":true}
c:I[3185,[],"OutletBoundary"]
e:I[7006,[],"AsyncMetadataOutlet"]
10:I[3185,[],"ViewportBoundary"]
12:I[3185,[],"MetadataBoundary"]
9:["$","$Lc",null,{"children":["$Ld",["$","$Le",null,{"promise":"$@f"}]]}]
a:["$","$1","h",{"children":[null,[["$","$L10",null,{"children":"$L11"}],["$","meta",null,{"name":"next-size-adjust","content":""}]],["$","$L12",null,{"children":["$","div",null,{"hidden":true,"children":["$","$3",null,{"fallback":null,"children":"$L13"}]}]}]]}]
11:[["$","meta","0",{"charSet":"utf-8"}],["$","meta","1",{"name":"viewport","content":"width=device-width, initial-scale=1"}]]
d:null
14:I[2942,[],"IconMark"]
f:{"metadata":[["$","title","0",{"children":"Find Parks in Sydney | BBQs, Playgrounds & More"}],["$","meta","1",{"name":"description","content":"Discover the best parks across Sydney. Filter by suburb and features like BBQs, playgrounds and off-leash areas to plan your next outing."}],["$","meta","2",{"name":"keywords","content":"parks,Sydney,BBQ,playgrounds,dog parks,outdoors"}],["$","link","3",{"rel":"canonical","href":"https://parksnearme.com.au/sydney"}],["$","meta","4",{"property":"og:title","content":"Find Parks in Sydney | BBQs, Playgrounds & More"}],["$","meta","5",{"property":"og:description","content":"Discover the best parks across Sydney. Filter by suburb and features like BBQs, playgrounds and off-leash areas to plan your next outing."}],["$","meta","6",{"property":"og:url","content":"https://parksnearme.com.au/sydney"}],["$","meta","7",{"property":"og:image","content":"http://localhost:3000/preview.png"}],["$","meta","8",{"property":"og:image:width","content":"1200"}],["$","meta","9",{"property":"og:image:height","content":"630"}],["$","meta","10",{"property":"og:image:alt","content":"Parks near me preview image"}],["$","meta","11",{"name":"twitter:card","content":"summary_large_image"}],["$","meta","12",{"name":"twitter:title","content":"Find Parks in Sydney | BBQs, Playgrounds & More"}],["$","meta","13",{"name":"twitter:description","content":"Discover the best parks across Sydney. Filter by suburb and features like BBQs, playgrounds and off-leash areas to plan your next outing."}],["$","meta","14",{"name":"twitter:image","content":"http://localhost:3000/preview.png"}],["$","link","15",{"rel":"icon","href":"/favicon.ico","type":"image/x-icon","sizes":"192x192"}],["$","$L14","16",{}]],"error":null,"digest":"$undefined"}
13:"$f:metadata"
